header: 
  seq: 471
  stamp: 
    secs: 344
    nsecs: 304000000
  frame_id: "uav1/gps_baro_origin"
child_frame_id: "uav1/fcu"
pose: 
  pose: 
    position: 
      x: -0.2771317330622168
      y: 2.720412738519715
      z: 0.009436219147886471
    orientation: 
      x: -0.014263934272601404
      y: 0.015943667925336236
      z: -0.029357238301888283
      w: 0.9993400165153244
  covariance: [0.0, 0.0, 0.0, 0.0, 0.0, 0.0, 0.0, 0.0, 0.0, 0.0, 0.0, 0.0, 0.0, 0.0, 0.0, 0.0, 0.0, 0.0, 0.0, 0.0, 0.0, 0.0, 0.0, 0.0, 0.0, 0.0, 0.0, 0.0, 0.0, 0.0, 0.0, 0.0, 0.0, 0.0, 0.0, 0.0]
twist: 
  twist: 
    linear: 
      x: -0.0043967076895158295
      y: 0.009415954525112211
      z: -0.0032352215727504316
    angular: 
      x: -6.987876258790493e-05
      y: 0.0008502043783664704
      z: 0.0009280641097575425
  covariance: [0.0, 0.0, 0.0, 0.0, 0.0, 0.0, 0.0, 0.0, 0.0, 0.0, 0.0, 0.0, 0.0, 0.0, 0.0, 0.0, 0.0, 0.0, 0.0, 0.0, 0.0, 0.0, 0.0, 0.0, 0.0, 0.0, 0.0, 0.0, 0.0, 0.0, 0.0, 0.0, 0.0, 0.0, 0.0, 0.0]
---
header: 
  seq: 472
  stamp: 
    secs: 344
    nsecs: 312000000
  frame_id: "uav1/gps_baro_origin"
child_frame_id: "uav1/fcu"
pose: 
  pose: 
    position: 
      x: -0.27723389024734907
      y: 2.7206726870021742
      z: 0.009408258222151206
    orientation: 
      x: -0.014272388240276128
      y: 0.015931747347593596
      z: -0.029348048152717972
      w: 0.9993403547428037
  covariance: [0.0, 0.0, 0.0, 0.0, 0.0, 0.0, 0.0, 0.0, 0.0, 0.0, 0.0, 0.0, 0.0, 0.0, 0.0, 0.0, 0.0, 0.0, 0.0, 0.0, 0.0, 0.0, 0.0, 0.0, 0.0, 0.0, 0.0, 0.0, 0.0, 0.0, 0.0, 0.0, 0.0, 0.0, 0.0, 0.0]
twist: 
  twist: 
    linear: 
      x: -0.004718734362781557
      y: 0.010043137044455239
      z: -0.003392528551262289
    angular: 
      x: -0.00038477894850075245
      y: 0.00023269234225153915
      z: -0.0006317307124845684
  covariance: [0.0, 0.0, 0.0, 0.0, 0.0, 0.0, 0.0, 0.0, 0.0, 0.0, 0.0, 0.0, 0.0, 0.0, 0.0, 0.0, 0.0, 0.0, 0.0, 0.0, 0.0, 0.0, 0.0, 0.0, 0.0, 0.0, 0.0, 0.0, 0.0, 0.0, 0.0, 0.0, 0.0, 0.0, 0.0, 0.0]
---
header: 
  seq: 473
  stamp: 
    secs: 344
    nsecs: 324000000
  frame_id: "uav1/gps_baro_origin"
child_frame_id: "uav1/fcu"
pose: 
  pose: 
    position: 
      x: -0.27749200473459057
      y: 2.7210761626515203
      z: 0.009361853089619742
    orientation: 
      x: -0.014302122495022265
      y: 0.015921303663767546
      z: -0.02934180084503796
      w: 0.999340296545253
  covariance: [0.0, 0.0, 0.0, 0.0, 0.0, 0.0, 0.0, 0.0, 0.0, 0.0, 0.0, 0.0, 0.0, 0.0, 0.0, 0.0, 0.0, 0.0, 0.0, 0.0, 0.0, 0.0, 0.0, 0.0, 0.0, 0.0, 0.0, 0.0, 0.0, 0.0, 0.0, 0.0, 0.0, 0.0, 0.0, 0.0]
twist: 
  twist: 
    linear: 
      x: -0.005732071545160948
      y: 0.01132987006495851
      z: -0.0040322076222117
    angular: 
      x: -0.0006128322565928102
      y: -0.00012367917224764832
      z: -0.0006875211838632822
  covariance: [0.0, 0.0, 0.0, 0.0, 0.0, 0.0, 0.0, 0.0, 0.0, 0.0, 0.0, 0.0, 0.0, 0.0, 0.0, 0.0, 0.0, 0.0, 0.0, 0.0, 0.0, 0.0, 0.0, 0.0, 0.0, 0.0, 0.0, 0.0, 0.0, 0.0, 0.0, 0.0, 0.0, 0.0, 0.0, 0.0]
---
header: 
  seq: 474
  stamp: 
    secs: 344
    nsecs: 332000000
  frame_id: "uav1/gps_baro_origin"
child_frame_id: "uav1/fcu"
pose: 
  pose: 
    position: 
      x: -0.2775603836796131
      y: 2.721304418328416
      z: 0.00932909069329381
    orientation: 
      x: -0.014313723087275505
      y: 0.01589850061031586
      z: -0.029338644539342162
      w: 0.999340610631555
  covariance: [0.0, 0.0, 0.0, 0.0, 0.0, 0.0, 0.0, 0.0, 0.0, 0.0, 0.0, 0.0, 0.0, 0.0, 0.0, 0.0, 0.0, 0.0, 0.0, 0.0, 0.0, 0.0, 0.0, 0.0, 0.0, 0.0, 0.0, 0.0, 0.0, 0.0, 0.0, 0.0, 0.0, 0.0, 0.0, 0.0]
twist: 
  twist: 
    linear: 
      x: -0.005867876707443023
      y: 0.011759184246828591
      z: -0.003913399485525453
    angular: 
      x: -0.0005199192091822624
      y: -0.002679494209587574
      z: -0.0005311022396199402
  covariance: [0.0, 0.0, 0.0, 0.0, 0.0, 0.0, 0.0, 0.0, 0.0, 0.0, 0.0, 0.0, 0.0, 0.0, 0.0, 0.0, 0.0, 0.0, 0.0, 0.0, 0.0, 0.0, 0.0, 0.0, 0.0, 0.0, 0.0, 0.0, 0.0, 0.0, 0.0, 0.0, 0.0, 0.0, 0.0, 0.0]
---
header: 
  seq: 475
  stamp: 
    secs: 344
    nsecs: 344000000
  frame_id: "uav1/gps_baro_origin"
child_frame_id: "uav1/fcu"
pose: 
  pose: 
    position: 
      x: -0.2776029507207558
      y: 2.721400482619008
      z: 0.00927997749485832
    orientation: 
      x: -0.014313723087275505
      y: 0.01589850061031586
      z: -0.029338644539342162
      w: 0.999340610631555
  covariance: [0.0, 0.0, 0.0, 0.0, 0.0, 0.0, 0.0, 0.0, 0.0, 0.0, 0.0, 0.0, 0.0, 0.0, 0.0, 0.0, 0.0, 0.0, 0.0, 0.0, 0.0, 0.0, 0.0, 0.0, 0.0, 0.0, 0.0, 0.0, 0.0, 0.0, 0.0, 0.0, 0.0, 0.0, 0.0, 0.0]
twist: 
  twist: 
    linear: 
      x: -0.005916154501293522
      y: 0.011828341525433186
      z: -0.0039470709582903355
    angular: 
      x: -0.0005199192091822624
      y: -0.002679494209587574
      z: -0.0005311022396199402
  covariance: [0.0, 0.0, 0.0, 0.0, 0.0, 0.0, 0.0, 0.0, 0.0, 0.0, 0.0, 0.0, 0.0, 0.0, 0.0, 0.0, 0.0, 0.0, 0.0, 0.0, 0.0, 0.0, 0.0, 0.0, 0.0, 0.0, 0.0, 0.0, 0.0, 0.0, 0.0, 0.0, 0.0, 0.0, 0.0, 0.0]
---
header: 
  seq: 476
  stamp: 
    secs: 344
    nsecs: 352000000
  frame_id: "uav1/gps_baro_origin"
child_frame_id: "uav1/fcu"
pose: 
  pose: 
    position: 
      x: -0.27782616901563534
      y: 2.7218009679680724
      z: 0.009243918857221308
    orientation: 
      x: -0.014331702813181331
      y: 0.015901693668300895
      z: -0.02934651852863122
      w: 0.9993400450258968
  covariance: [0.0, 0.0, 0.0, 0.0, 0.0, 0.0, 0.0, 0.0, 0.0, 0.0, 0.0, 0.0, 0.0, 0.0, 0.0, 0.0, 0.0, 0.0, 0.0, 0.0, 0.0, 0.0, 0.0, 0.0, 0.0, 0.0, 0.0, 0.0, 0.0, 0.0, 0.0, 0.0, 0.0, 0.0, 0.0, 0.0]
twist: 
  twist: 
    linear: 
      x: -0.006669370176047062
      y: 0.012862788785213687
      z: -0.0041827587601528955
    angular: 
      x: 0.00260070594958961
      y: 0.0036020372062921524
      z: 0.0011364798992872234
  covariance: [0.0, 0.0, 0.0, 0.0, 0.0, 0.0, 0.0, 0.0, 0.0, 0.0, 0.0, 0.0, 0.0, 0.0, 0.0, 0.0, 0.0, 0.0, 0.0, 0.0, 0.0, 0.0, 0.0, 0.0, 0.0, 0.0, 0.0, 0.0, 0.0, 0.0, 0.0, 0.0, 0.0, 0.0, 0.0, 0.0]
---
header: 
  seq: 477
  stamp: 
    secs: 344
    nsecs: 364000000
  frame_id: "uav1/gps_baro_origin"
child_frame_id: "uav1/fcu"
pose: 
  pose: 
    position: 
      x: -0.27783299567076686
      y: 2.72201220961156
      z: 0.00919059307520934
    orientation: 
      x: -0.014335477560911743
      y: 0.015893204894956377
      z: -0.029328978504487988
      w: 0.9993406812555607
  covariance: [0.0, 0.0, 0.0, 0.0, 0.0, 0.0, 0.0, 0.0, 0.0, 0.0, 0.0, 0.0, 0.0, 0.0, 0.0, 0.0, 0.0, 0.0, 0.0, 0.0, 0.0, 0.0, 0.0, 0.0, 0.0, 0.0, 0.0, 0.0, 0.0, 0.0, 0.0, 0.0, 0.0, 0.0, 0.0, 0.0]
twist: 
  twist: 
    linear: 
      x: -0.00661180615992246
      y: 0.013334138688318523
      z: -0.004252050333645368
    angular: 
      x: -0.0005449430318549275
      y: 0.0006952797994017598
      z: -0.0024351892061531544
  covariance: [0.0, 0.0, 0.0, 0.0, 0.0, 0.0, 0.0, 0.0, 0.0, 0.0, 0.0, 0.0, 0.0, 0.0, 0.0, 0.0, 0.0, 0.0, 0.0, 0.0, 0.0, 0.0, 0.0, 0.0, 0.0, 0.0, 0.0, 0.0, 0.0, 0.0, 0.0, 0.0, 0.0, 0.0, 0.0, 0.0]
---
header: 
  seq: 478
  stamp: 
    secs: 344
    nsecs: 372000000
  frame_id: "uav1/gps_baro_origin"
child_frame_id: "uav1/fcu"
pose: 
  pose: 
    position: 
      x: -0.27790495328149406
      y: 2.722175863888193
      z: 0.00915343737838847
    orientation: 
      x: -0.014335477560911743
      y: 0.015893204894956377
      z: -0.029328978504487988
      w: 0.9993406812555607
  covariance: [0.0, 0.0, 0.0, 0.0, 0.0, 0.0, 0.0, 0.0, 0.0, 0.0, 0.0, 0.0, 0.0, 0.0, 0.0, 0.0, 0.0, 0.0, 0.0, 0.0, 0.0, 0.0, 0.0, 0.0, 0.0, 0.0, 0.0, 0.0, 0.0, 0.0, 0.0, 0.0, 0.0, 0.0, 0.0, 0.0]
twist: 
  twist: 
    linear: 
      x: -0.006687060727504989
      y: 0.013452497051600473
      z: -0.004386549922844419
    angular: 
      x: 0.0026107332669198513
      y: 0.0031272438354790215
      z: 0.0024927342310547824
  covariance: [0.0, 0.0, 0.0, 0.0, 0.0, 0.0, 0.0, 0.0, 0.0, 0.0, 0.0, 0.0, 0.0, 0.0, 0.0, 0.0, 0.0, 0.0, 0.0, 0.0, 0.0, 0.0, 0.0, 0.0, 0.0, 0.0, 0.0, 0.0, 0.0, 0.0, 0.0, 0.0, 0.0, 0.0, 0.0, 0.0]
---
header: 
  seq: 479
  stamp: 
    secs: 344
    nsecs: 384000000
  frame_id: "uav1/gps_baro_origin"
child_frame_id: "uav1/fcu"
pose: 
  pose: 
    position: 
      x: -0.27788237652428577
      y: 2.722325292984823
      z: 0.009099240220251926
    orientation: 
      x: -0.014342426984833722
      y: 0.01588401285075303
      z: -0.029318336933730774
      w: 0.9993410071858734
  covariance: [0.0, 0.0, 0.0, 0.0, 0.0, 0.0, 0.0, 0.0, 0.0, 0.0, 0.0, 0.0, 0.0, 0.0, 0.0, 0.0, 0.0, 0.0, 0.0, 0.0, 0.0, 0.0, 0.0, 0.0, 0.0, 0.0, 0.0, 0.0, 0.0, 0.0, 0.0, 0.0, 0.0, 0.0, 0.0, 0.0]
twist: 
  twist: 
    linear: 
      x: -0.006496481680966671
      y: 0.013675794645065714
      z: -0.004298362512479974
    angular: 
      x: -0.000550768687389791
      y: -0.0017630672082304957
      z: -0.0020402560476213694
  covariance: [0.0, 0.0, 0.0, 0.0, 0.0, 0.0, 0.0, 0.0, 0.0, 0.0, 0.0, 0.0, 0.0, 0.0, 0.0, 0.0, 0.0, 0.0, 0.0, 0.0, 0.0, 0.0, 0.0, 0.0, 0.0, 0.0, 0.0, 0.0, 0.0, 0.0, 0.0, 0.0, 0.0, 0.0, 0.0, 0.0]
---
header: 
  seq: 480
  stamp: 
    secs: 344
    nsecs: 392000000
  frame_id: "uav1/gps_baro_origin"
child_frame_id: "uav1/fcu"
pose: 
  pose: 
    position: 
      x: -0.27788537086300186
      y: 2.7224712757991103
      z: 0.009063325749227687
    orientation: 
      x: -0.014361537572214245
      y: 0.015862984659958366
      z: -0.029314801846256983
      w: 0.9993411731872784
  covariance: [0.0, 0.0, 0.0, 0.0, 0.0, 0.0, 0.0, 0.0, 0.0, 0.0, 0.0, 0.0, 0.0, 0.0, 0.0, 0.0, 0.0, 0.0, 0.0, 0.0, 0.0, 0.0, 0.0, 0.0, 0.0, 0.0, 0.0, 0.0, 0.0, 0.0, 0.0, 0.0, 0.0, 0.0, 0.0, 0.0]
twist: 
  twist: 
    linear: 
      x: -0.00631160454192457
      y: 0.013711938456523371
      z: -0.004287463234937652
    angular: 
      x: -0.003191061317920685
      y: -0.0008504735305905345
      z: -0.0022377034183591604
  covariance: [0.0, 0.0, 0.0, 0.0, 0.0, 0.0, 0.0, 0.0, 0.0, 0.0, 0.0, 0.0, 0.0, 0.0, 0.0, 0.0, 0.0, 0.0, 0.0, 0.0, 0.0, 0.0, 0.0, 0.0, 0.0, 0.0, 0.0, 0.0, 0.0, 0.0, 0.0, 0.0, 0.0, 0.0, 0.0, 0.0]
---
header: 
  seq: 481
  stamp: 
    secs: 344
    nsecs: 404000000
  frame_id: "uav1/gps_baro_origin"
child_frame_id: "uav1/fcu"
pose: 
  pose: 
    position: 
      x: -0.27793685430655574
      y: 2.72265995157655
      z: 0.009010069706754269
    orientation: 
      x: -0.014395081962832455
      y: 0.01586984650113874
      z: -0.02930889763452492
      w: 0.9993407748968123
  covariance: [0.0, 0.0, 0.0, 0.0, 0.0, 0.0, 0.0, 0.0, 0.0, 0.0, 0.0, 0.0, 0.0, 0.0, 0.0, 0.0, 0.0, 0.0, 0.0, 0.0, 0.0, 0.0, 0.0, 0.0, 0.0, 0.0, 0.0, 0.0, 0.0, 0.0, 0.0, 0.0, 0.0, 0.0, 0.0, 0.0]
twist: 
  twist: 
    linear: 
      x: -0.006422178814042795
      y: 0.0140745173101156
      z: -0.004167362759573386
    angular: 
      x: -0.003496910911053419
      y: 0.005432863254100084
      z: -0.0006814809748902923
  covariance: [0.0, 0.0, 0.0, 0.0, 0.0, 0.0, 0.0, 0.0, 0.0, 0.0, 0.0, 0.0, 0.0, 0.0, 0.0, 0.0, 0.0, 0.0, 0.0, 0.0, 0.0, 0.0, 0.0, 0.0, 0.0, 0.0, 0.0, 0.0, 0.0, 0.0, 0.0, 0.0, 0.0, 0.0, 0.0, 0.0]
---
header: 
  seq: 482
  stamp: 
    secs: 344
    nsecs: 412000000
  frame_id: "uav1/gps_baro_origin"
child_frame_id: "uav1/fcu"
pose: 
  pose: 
    position: 
      x: -0.277899990200934
      y: 2.72278725176078
      z: 0.008974936813089349
    orientation: 
      x: -0.014403814193157945
      y: 0.015880750882757144
      z: -0.02930026241124014
      w: 0.9993406875889731
  covariance: [0.0, 0.0, 0.0, 0.0, 0.0, 0.0, 0.0, 0.0, 0.0, 0.0, 0.0, 0.0, 0.0, 0.0, 0.0, 0.0, 0.0, 0.0, 0.0, 0.0, 0.0, 0.0, 0.0, 0.0, 0.0, 0.0, 0.0, 0.0, 0.0, 0.0, 0.0, 0.0, 0.0, 0.0, 0.0, 0.0]
twist: 
  twist: 
    linear: 
      x: -0.006079234686270667
      y: 0.014026339616272532
      z: -0.004177107631029656
    angular: 
      x: 0.0006801276467740536
      y: 0.00471770903095603
      z: -0.0011072935303673155
  covariance: [0.0, 0.0, 0.0, 0.0, 0.0, 0.0, 0.0, 0.0, 0.0, 0.0, 0.0, 0.0, 0.0, 0.0, 0.0, 0.0, 0.0, 0.0, 0.0, 0.0, 0.0, 0.0, 0.0, 0.0, 0.0, 0.0, 0.0, 0.0, 0.0, 0.0, 0.0, 0.0, 0.0, 0.0, 0.0, 0.0]
---
header: 
  seq: 483
  stamp: 
    secs: 344
    nsecs: 424000000
  frame_id: "uav1/gps_baro_origin"
child_frame_id: "uav1/fcu"
pose: 
  pose: 
    position: 
      x: -0.27787335987787865
      y: 2.722887173445167
      z: 0.008923035837535433
    orientation: 
      x: -0.014407440343687575
      y: 0.015879283246086662
      z: -0.029283183776455342
      w: 0.9993411984742352
  covariance: [0.0, 0.0, 0.0, 0.0, 0.0, 0.0, 0.0, 0.0, 0.0, 0.0, 0.0, 0.0, 0.0, 0.0, 0.0, 0.0, 0.0, 0.0, 0.0, 0.0, 0.0, 0.0, 0.0, 0.0, 0.0, 0.0, 0.0, 0.0, 0.0, 0.0, 0.0, 0.0, 0.0, 0.0, 0.0, 0.0]
twist: 
  twist: 
    linear: 
      x: -0.005860231798501203
      y: 0.014045568231732917
      z: -0.004018055079340358
    angular: 
      x: -0.0003609120612964034
      y: 0.0002239351160824304
      z: 0.0042696441523730755
  covariance: [0.0, 0.0, 0.0, 0.0, 0.0, 0.0, 0.0, 0.0, 0.0, 0.0, 0.0, 0.0, 0.0, 0.0, 0.0, 0.0, 0.0, 0.0, 0.0, 0.0, 0.0, 0.0, 0.0, 0.0, 0.0, 0.0, 0.0, 0.0, 0.0, 0.0, 0.0, 0.0, 0.0, 0.0, 0.0, 0.0]
---
header: 
  seq: 484
  stamp: 
    secs: 344
    nsecs: 432000000
  frame_id: "uav1/gps_baro_origin"
child_frame_id: "uav1/fcu"
pose: 
  pose: 
    position: 
      x: -0.27793568221227977
      y: 2.7230588816009846
      z: 0.008888941359364468
    orientation: 
      x: -0.014407440343687575
      y: 0.015879283246086662
      z: -0.029283183776455342
      w: 0.9993411984742352
  covariance: [0.0, 0.0, 0.0, 0.0, 0.0, 0.0, 0.0, 0.0, 0.0, 0.0, 0.0, 0.0, 0.0, 0.0, 0.0, 0.0, 0.0, 0.0, 0.0, 0.0, 0.0, 0.0, 0.0, 0.0, 0.0, 0.0, 0.0, 0.0, 0.0, 0.0, 0.0, 0.0, 0.0, 0.0, 0.0, 0.0]
twist: 
  twist: 
    linear: 
      x: -0.005928488457672419
      y: 0.014161690325186575
      z: -0.004038685383492328
    angular: 
      x: -0.0003609120612964034
      y: 0.0002239351160824304
      z: 0.0042696441523730755
  covariance: [0.0, 0.0, 0.0, 0.0, 0.0, 0.0, 0.0, 0.0, 0.0, 0.0, 0.0, 0.0, 0.0, 0.0, 0.0, 0.0, 0.0, 0.0, 0.0, 0.0, 0.0, 0.0, 0.0, 0.0, 0.0, 0.0, 0.0, 0.0, 0.0, 0.0, 0.0, 0.0, 0.0, 0.0, 0.0, 0.0]
---
header: 
  seq: 485
  stamp: 
    secs: 344
    nsecs: 444000000
  frame_id: "uav1/gps_baro_origin"
child_frame_id: "uav1/fcu"
pose: 
  pose: 
    position: 
      x: -0.2777747231088653
      y: 2.7230988299339005
      z: 0.0088386988894157
    orientation: 
      x: -0.014440912405311087
      y: 0.015869829043313157
      z: -0.029238806676940513
      w: 0.999342144733328
  covariance: [0.0, 0.0, 0.0, 0.0, 0.0, 0.0, 0.0, 0.0, 0.0, 0.0, 0.0, 0.0, 0.0, 0.0, 0.0, 0.0, 0.0, 0.0, 0.0, 0.0, 0.0, 0.0, 0.0, 0.0, 0.0, 0.0, 0.0, 0.0, 0.0, 0.0, 0.0, 0.0, 0.0, 0.0, 0.0, 0.0]
twist: 
  twist: 
    linear: 
      x: -0.005191959719295362
      y: 0.013962481236043043
      z: -0.003888431157489866
    angular: 
      x: 0.0004722426529042423
      y: 0.002064017578959465
      z: 0.00029895454645156833
  covariance: [0.0, 0.0, 0.0, 0.0, 0.0, 0.0, 0.0, 0.0, 0.0, 0.0, 0.0, 0.0, 0.0, 0.0, 0.0, 0.0, 0.0, 0.0, 0.0, 0.0, 0.0, 0.0, 0.0, 0.0, 0.0, 0.0, 0.0, 0.0, 0.0, 0.0, 0.0, 0.0, 0.0, 0.0, 0.0, 0.0]
---
header: 
  seq: 486
  stamp: 
    secs: 344
    nsecs: 452000000
  frame_id: "uav1/gps_baro_origin"
child_frame_id: "uav1/fcu"
pose: 
  pose: 
    position: 
      x: -0.27768313528281224
      y: 2.7231907111265645
      z: 0.008806173367911257
    orientation: 
      x: -0.014449294635017474
      y: 0.015872674085097124
      z: -0.029221089913121095
      w: 0.99934251072013
  covariance: [0.0, 0.0, 0.0, 0.0, 0.0, 0.0, 0.0, 0.0, 0.0, 0.0, 0.0, 0.0, 0.0, 0.0, 0.0, 0.0, 0.0, 0.0, 0.0, 0.0, 0.0, 0.0, 0.0, 0.0, 0.0, 0.0, 0.0, 0.0, 0.0, 0.0, 0.0, 0.0, 0.0, 0.0, 0.0, 0.0]
twist: 
  twist: 
    linear: 
      x: -0.004674611593689472
      y: 0.013782830329468186
      z: -0.003786686523771973
    angular: 
      x: -0.002173393964767456
      y: 0.00240275077521801
      z: 0.0002831435995176432
  covariance: [0.0, 0.0, 0.0, 0.0, 0.0, 0.0, 0.0, 0.0, 0.0, 0.0, 0.0, 0.0, 0.0, 0.0, 0.0, 0.0, 0.0, 0.0, 0.0, 0.0, 0.0, 0.0, 0.0, 0.0, 0.0, 0.0, 0.0, 0.0, 0.0, 0.0, 0.0, 0.0, 0.0, 0.0, 0.0, 0.0]
---
header: 
  seq: 487
  stamp: 
    secs: 344
    nsecs: 464000000
  frame_id: "uav1/gps_baro_origin"
child_frame_id: "uav1/fcu"
pose: 
  pose: 
    position: 
      x: -0.2777151794056628
      y: 2.723302395915521
      z: 0.008757399491051938
    orientation: 
      x: -0.014449294635017474
      y: 0.015872674085097124
      z: -0.029221089913121095
      w: 0.99934251072013
  covariance: [0.0, 0.0, 0.0, 0.0, 0.0, 0.0, 0.0, 0.0, 0.0, 0.0, 0.0, 0.0, 0.0, 0.0, 0.0, 0.0, 0.0, 0.0, 0.0, 0.0, 0.0, 0.0, 0.0, 0.0, 0.0, 0.0, 0.0, 0.0, 0.0, 0.0, 0.0, 0.0, 0.0, 0.0, 0.0, 0.0]
twist: 
  twist: 
    linear: 
      x: -0.004711188739179792
      y: 0.013857128423524157
      z: -0.003815261123632375
    angular: 
      x: -0.002173393964767456
      y: 0.00240275077521801
      z: 0.0002831435995176432
  covariance: [0.0, 0.0, 0.0, 0.0, 0.0, 0.0, 0.0, 0.0, 0.0, 0.0, 0.0, 0.0, 0.0, 0.0, 0.0, 0.0, 0.0, 0.0, 0.0, 0.0, 0.0, 0.0, 0.0, 0.0, 0.0, 0.0, 0.0, 0.0, 0.0, 0.0, 0.0, 0.0, 0.0, 0.0, 0.0, 0.0]
---
header: 
  seq: 488
  stamp: 
    secs: 344
    nsecs: 472000000
  frame_id: "uav1/gps_baro_origin"
child_frame_id: "uav1/fcu"
pose: 
  pose: 
    position: 
      x: -0.277495147181614
      y: 2.7233215309228425
      z: 0.008722856017228761
    orientation: 
      x: -0.014461443091549125
      y: 0.01588395970367356
      z: -0.0291926271634888
      w: 0.9993430024272832
  covariance: [0.0, 0.0, 0.0, 0.0, 0.0, 0.0, 0.0, 0.0, 0.0, 0.0, 0.0, 0.0, 0.0, 0.0, 0.0, 0.0, 0.0, 0.0, 0.0, 0.0, 0.0, 0.0, 0.0, 0.0, 0.0, 0.0, 0.0, 0.0, 0.0, 0.0, 0.0, 0.0, 0.0, 0.0, 0.0, 0.0]
twist: 
  twist: 
    linear: 
      x: -0.00370045301398484
      y: 0.013424579169387146
      z: -0.004004870632088786
    angular: 
      x: 0.0007165764109231532
      y: 0.0010424703359603882
      z: -5.3013209253550855e-06
  covariance: [0.0, 0.0, 0.0, 0.0, 0.0, 0.0, 0.0, 0.0, 0.0, 0.0, 0.0, 0.0, 0.0, 0.0, 0.0, 0.0, 0.0, 0.0, 0.0, 0.0, 0.0, 0.0, 0.0, 0.0, 0.0, 0.0, 0.0, 0.0, 0.0, 0.0, 0.0, 0.0, 0.0, 0.0, 0.0, 0.0]
---
header: 
  seq: 489
  stamp: 
    secs: 344
    nsecs: 484000000
  frame_id: "uav1/gps_baro_origin"
child_frame_id: "uav1/fcu"
pose: 
  pose: 
    position: 
      x: -0.2773463366615489
      y: 2.7233408233437784
      z: 0.00867138055861805
    orientation: 
      x: -0.01446486330295276
      y: 0.015904201749863806
      z: -0.029151159112737888
      w: 0.9993438217950017
  covariance: [0.0, 0.0, 0.0, 0.0, 0.0, 0.0, 0.0, 0.0, 0.0, 0.0, 0.0, 0.0, 0.0, 0.0, 0.0, 0.0, 0.0, 0.0, 0.0, 0.0, 0.0, 0.0, 0.0, 0.0, 0.0, 0.0, 0.0, 0.0, 0.0, 0.0, 0.0, 0.0, 0.0, 0.0, 0.0, 0.0]
twist: 
  twist: 
    linear: 
      x: -0.0030348578768071154
      y: 0.01316017059280071
      z: -0.003997308544246127
    angular: 
      x: -0.00045829336158931255
      y: 0.003940350841730833
      z: 0.0006373842479661103
  covariance: [0.0, 0.0, 0.0, 0.0, 0.0, 0.0, 0.0, 0.0, 0.0, 0.0, 0.0, 0.0, 0.0, 0.0, 0.0, 0.0, 0.0, 0.0, 0.0, 0.0, 0.0, 0.0, 0.0, 0.0, 0.0, 0.0, 0.0, 0.0, 0.0, 0.0, 0.0, 0.0, 0.0, 0.0, 0.0, 0.0]
---
header: 
  seq: 490
  stamp: 
    secs: 344
    nsecs: 492000000
  frame_id: "uav1/gps_baro_origin"
child_frame_id: "uav1/fcu"
pose: 
  pose: 
    position: 
      x: -0.27737531482579664
      y: 2.7234998310267704
      z: 0.008636957414964144
    orientation: 
      x: -0.01446486330295276
      y: 0.015904201749863806
      z: -0.029151159112737888
      w: 0.9993438217950017
  covariance: [0.0, 0.0, 0.0, 0.0, 0.0, 0.0, 0.0, 0.0, 0.0, 0.0, 0.0, 0.0, 0.0, 0.0, 0.0, 0.0, 0.0, 0.0, 0.0, 0.0, 0.0, 0.0, 0.0, 0.0, 0.0, 0.0, 0.0, 0.0, 0.0, 0.0, 0.0, 0.0, 0.0, 0.0, 0.0, 0.0]
twist: 
  twist: 
    linear: 
      x: -0.0030741508895436925
      y: 0.013262582981463667
      z: -0.004016521334002068
    angular: 
      x: -0.00045829336158931255
      y: 0.003940350841730833
      z: 0.0006373842479661103
  covariance: [0.0, 0.0, 0.0, 0.0, 0.0, 0.0, 0.0, 0.0, 0.0, 0.0, 0.0, 0.0, 0.0, 0.0, 0.0, 0.0, 0.0, 0.0, 0.0, 0.0, 0.0, 0.0, 0.0, 0.0, 0.0, 0.0, 0.0, 0.0, 0.0, 0.0, 0.0, 0.0, 0.0, 0.0, 0.0, 0.0]
---
header: 
  seq: 491
  stamp: 
    secs: 344
    nsecs: 504000000
  frame_id: "uav1/gps_baro_origin"
child_frame_id: "uav1/fcu"
pose: 
  pose: 
    position: 
      x: -0.27755082463522146
      y: 2.723823946659428
      z: 0.008578025613956637
    orientation: 
      x: -0.014463334345037576
      y: 0.015908393899251177
      z: -0.02914104636809509
      w: 0.9993440734444542
  covariance: [0.0, 0.0, 0.0, 0.0, 0.0, 0.0, 0.0, 0.0, 0.0, 0.0, 0.0, 0.0, 0.0, 0.0, 0.0, 0.0, 0.0, 0.0, 0.0, 0.0, 0.0, 0.0, 0.0, 0.0, 0.0, 0.0, 0.0, 0.0, 0.0, 0.0, 0.0, 0.0, 0.0, 0.0, 0.0, 0.0]
twist: 
  twist: 
    linear: 
      x: -0.0037596365297362265
      y: 0.014149689562350716
      z: -0.004520598969596115
    angular: 
      x: 0.0024402865674346685
      y: 0.001575852744281292
      z: 0.0004233826184645293
  covariance: [0.0, 0.0, 0.0, 0.0, 0.0, 0.0, 0.0, 0.0, 0.0, 0.0, 0.0, 0.0, 0.0, 0.0, 0.0, 0.0, 0.0, 0.0, 0.0, 0.0, 0.0, 0.0, 0.0, 0.0, 0.0, 0.0, 0.0, 0.0, 0.0, 0.0, 0.0, 0.0, 0.0, 0.0, 0.0, 0.0]
---
header: 
  seq: 492
  stamp: 
    secs: 344
    nsecs: 512000000
  frame_id: "uav1/gps_baro_origin"
child_frame_id: "uav1/fcu"
pose: 
  pose: 
    position: 
      x: -0.27764409839714366
      y: 2.724041317404914
      z: 0.008539348793884339
    orientation: 
      x: -0.01446296838365601
      y: 0.01590419155641409
      z: -0.029134808082856668
      w: 0.9993443052211526
  covariance: [0.0, 0.0, 0.0, 0.0, 0.0, 0.0, 0.0, 0.0, 0.0, 0.0, 0.0, 0.0, 0.0, 0.0, 0.0, 0.0, 0.0, 0.0, 0.0, 0.0, 0.0, 0.0, 0.0, 0.0, 0.0, 0.0, 0.0, 0.0, 0.0, 0.0, 0.0, 0.0, 0.0, 0.0, 0.0, 0.0]
twist: 
  twist: 
    linear: 
      x: -0.004035057950301243
      y: 0.014431061153677299
      z: -0.00454553639997156
    angular: 
      x: 0.00040450628148391843
      y: 0.002188765443861484
      z: -0.0018746310379356148
  covariance: [0.0, 0.0, 0.0, 0.0, 0.0, 0.0, 0.0, 0.0, 0.0, 0.0, 0.0, 0.0, 0.0, 0.0, 0.0, 0.0, 0.0, 0.0, 0.0, 0.0, 0.0, 0.0, 0.0, 0.0, 0.0, 0.0, 0.0, 0.0, 0.0, 0.0, 0.0, 0.0, 0.0, 0.0, 0.0, 0.0]
---
header: 
  seq: 493
  stamp: 
    secs: 344
    nsecs: 524000000
  frame_id: "uav1/gps_baro_origin"
child_frame_id: "uav1/fcu"
pose: 
  pose: 
    position: 
      x: -0.27787827928379144
      y: 2.724356044073906
      z: 0.00848305119036019
    orientation: 
      x: -0.014476442324606863
      y: 0.015911146091461208
      z: -0.02910360565401722
      w: 0.999344923434642
  covariance: [0.0, 0.0, 0.0, 0.0, 0.0, 0.0, 0.0, 0.0, 0.0, 0.0, 0.0, 0.0, 0.0, 0.0, 0.0, 0.0, 0.0, 0.0, 0.0, 0.0, 0.0, 0.0, 0.0, 0.0, 0.0, 0.0, 0.0, 0.0, 0.0, 0.0, 0.0, 0.0, 0.0, 0.0, 0.0, 0.0]
twist: 
  twist: 
    linear: 
      x: -0.004940473092827702
      y: 0.015249557080563119
      z: -0.0044892977684704
    angular: 
      x: 0.0003086994984187186
      y: 0.0022697113454341884
      z: -0.0018699089996516707
  covariance: [0.0, 0.0, 0.0, 0.0, 0.0, 0.0, 0.0, 0.0, 0.0, 0.0, 0.0, 0.0, 0.0, 0.0, 0.0, 0.0, 0.0, 0.0, 0.0, 0.0, 0.0, 0.0, 0.0, 0.0, 0.0, 0.0, 0.0, 0.0, 0.0, 0.0, 0.0, 0.0, 0.0, 0.0, 0.0, 0.0]
---
header: 
  seq: 494
  stamp: 
    secs: 344
    nsecs: 532000000
  frame_id: "uav1/gps_baro_origin"
child_frame_id: "uav1/fcu"
pose: 
  pose: 
    position: 
      x: -0.2779450943859784
      y: 2.72452954279226
      z: 0.008443529348149691
    orientation: 
      x: -0.014491008335971977
      y: 0.01591352361997617
      z: -0.02907885709052798
      w: 0.9993454125471783
  covariance: [0.0, 0.0, 0.0, 0.0, 0.0, 0.0, 0.0, 0.0, 0.0, 0.0, 0.0, 0.0, 0.0, 0.0, 0.0, 0.0, 0.0, 0.0, 0.0, 0.0, 0.0, 0.0, 0.0, 0.0, 0.0, 0.0, 0.0, 0.0, 0.0, 0.0, 0.0, 0.0, 0.0, 0.0, 0.0, 0.0]
twist: 
  twist: 
    linear: 
      x: -0.005045620430638737
      y: 0.015329614354257488
      z: -0.004698171055191457
    angular: 
      x: -0.0032076260540634394
      y: 0.003474358469247819
      z: 0.006185796577483416
  covariance: [0.0, 0.0, 0.0, 0.0, 0.0, 0.0, 0.0, 0.0, 0.0, 0.0, 0.0, 0.0, 0.0, 0.0, 0.0, 0.0, 0.0, 0.0, 0.0, 0.0, 0.0, 0.0, 0.0, 0.0, 0.0, 0.0, 0.0, 0.0, 0.0, 0.0, 0.0, 0.0, 0.0, 0.0, 0.0, 0.0]
---
header: 
  seq: 495
  stamp: 
    secs: 344
    nsecs: 544000000
  frame_id: "uav1/gps_baro_origin"
child_frame_id: "uav1/fcu"
pose: 
  pose: 
    position: 
      x: -0.27802360963173983
      y: 2.724668426175091
      z: 0.008383350538973716
    orientation: 
      x: -0.014492403349312014
      y: 0.01590216098445455
      z: -0.02905854950000172
      w: 0.9993461676464461
  covariance: [0.0, 0.0, 0.0, 0.0, 0.0, 0.0, 0.0, 0.0, 0.0, 0.0, 0.0, 0.0, 0.0, 0.0, 0.0, 0.0, 0.0, 0.0, 0.0, 0.0, 0.0, 0.0, 0.0, 0.0, 0.0, 0.0, 0.0, 0.0, 0.0, 0.0, 0.0, 0.0, 0.0, 0.0, 0.0, 0.0]
twist: 
  twist: 
    linear: 
      x: -0.005254836491475498
      y: 0.015465281876197924
      z: -0.004738753761373272
    angular: 
      x: 0.001930534141138196
      y: -0.0010327054187655449
      z: -0.0003982422058470546
  covariance: [0.0, 0.0, 0.0, 0.0, 0.0, 0.0, 0.0, 0.0, 0.0, 0.0, 0.0, 0.0, 0.0, 0.0, 0.0, 0.0, 0.0, 0.0, 0.0, 0.0, 0.0, 0.0, 0.0, 0.0, 0.0, 0.0, 0.0, 0.0, 0.0, 0.0, 0.0, 0.0, 0.0, 0.0, 0.0, 0.0]
---
header: 
  seq: 496
  stamp: 
    secs: 344
    nsecs: 552000000
  frame_id: "uav1/gps_baro_origin"
child_frame_id: "uav1/fcu"
pose: 
  pose: 
    position: 
      x: -0.27807739345779736
      y: 2.724813961212485
      z: 0.008344124155104061
    orientation: 
      x: -0.01449885046958934
      y: 0.01589346667339511
      z: -0.029063886347722133
      w: 0.9993460489937632
  covariance: [0.0, 0.0, 0.0, 0.0, 0.0, 0.0, 0.0, 0.0, 0.0, 0.0, 0.0, 0.0, 0.0, 0.0, 0.0, 0.0, 0.0, 0.0, 0.0, 0.0, 0.0, 0.0, 0.0, 0.0, 0.0, 0.0, 0.0, 0.0, 0.0, 0.0, 0.0, 0.0, 0.0, 0.0, 0.0, 0.0]
twist: 
  twist: 
    linear: 
      x: -0.005293339404795826
      y: 0.01542487070365756
      z: -0.004751553107554212
    angular: 
      x: -0.0005599403521046042
      y: 0.0012754015624523159
      z: -0.0026658312417566776
  covariance: [0.0, 0.0, 0.0, 0.0, 0.0, 0.0, 0.0, 0.0, 0.0, 0.0, 0.0, 0.0, 0.0, 0.0, 0.0, 0.0, 0.0, 0.0, 0.0, 0.0, 0.0, 0.0, 0.0, 0.0, 0.0, 0.0, 0.0, 0.0, 0.0, 0.0, 0.0, 0.0, 0.0, 0.0, 0.0, 0.0]
---
header: 
  seq: 497
  stamp: 
    secs: 344
    nsecs: 564000000
  frame_id: "uav1/gps_baro_origin"
child_frame_id: "uav1/fcu"
pose: 
  pose: 
    position: 
      x: -0.27821523663733816
      y: 2.7250191343817236
      z: 0.008281938619741788
    orientation: 
      x: -0.014529367654419038
      y: 0.015892441369593294
      z: -0.029046876040650663
      w: 0.9993461035239886
  covariance: [0.0, 0.0, 0.0, 0.0, 0.0, 0.0, 0.0, 0.0, 0.0, 0.0, 0.0, 0.0, 0.0, 0.0, 0.0, 0.0, 0.0, 0.0, 0.0, 0.0, 0.0, 0.0, 0.0, 0.0, 0.0, 0.0, 0.0, 0.0, 0.0, 0.0, 0.0, 0.0, 0.0, 0.0, 0.0, 0.0]
twist: 
  twist: 
    linear: 
      x: -0.005742296717806083
      y: 0.01581324109314751
      z: -0.005024244841028656
    angular: 
      x: -0.0014791720313951373
      y: 0.0008854116313159465
      z: -0.0013016643933951857
  covariance: [0.0, 0.0, 0.0, 0.0, 0.0, 0.0, 0.0, 0.0, 0.0, 0.0, 0.0, 0.0, 0.0, 0.0, 0.0, 0.0, 0.0, 0.0, 0.0, 0.0, 0.0, 0.0, 0.0, 0.0, 0.0, 0.0, 0.0, 0.0, 0.0, 0.0, 0.0, 0.0, 0.0, 0.0, 0.0, 0.0]
---
header: 
  seq: 498
  stamp: 
    secs: 344
    nsecs: 572000000
  frame_id: "uav1/gps_baro_origin"
child_frame_id: "uav1/fcu"
pose: 
  pose: 
    position: 
      x: -0.2782753617781652
      y: 2.7252115667858514
      z: 0.008239302839132134
    orientation: 
      x: -0.014549307885922763
      y: 0.015889802586512205
      z: -0.029044526934080942
      w: 0.9993459294577232
  covariance: [0.0, 0.0, 0.0, 0.0, 0.0, 0.0, 0.0, 0.0, 0.0, 0.0, 0.0, 0.0, 0.0, 0.0, 0.0, 0.0, 0.0, 0.0, 0.0, 0.0, 0.0, 0.0, 0.0, 0.0, 0.0, 0.0, 0.0, 0.0, 0.0, 0.0, 0.0, 0.0, 0.0, 0.0, 0.0, 0.0]
twist: 
  twist: 
    linear: 
      x: -0.005803762818138617
      y: 0.015933622544443568
      z: -0.005049152277759342
    angular: 
      x: -0.0014791720313951373
      y: 0.0008854116313159465
      z: -0.0013016643933951857
  covariance: [0.0, 0.0, 0.0, 0.0, 0.0, 0.0, 0.0, 0.0, 0.0, 0.0, 0.0, 0.0, 0.0, 0.0, 0.0, 0.0, 0.0, 0.0, 0.0, 0.0, 0.0, 0.0, 0.0, 0.0, 0.0, 0.0, 0.0, 0.0, 0.0, 0.0, 0.0, 0.0, 0.0, 0.0, 0.0, 0.0]
---
header: 
  seq: 499
  stamp: 
    secs: 344
    nsecs: 584000000
  frame_id: "uav1/gps_baro_origin"
child_frame_id: "uav1/fcu"
pose: 
  pose: 
    position: 
      x: -0.2782663374075227
      y: 2.725236042171481
      z: 0.008169381683035479
    orientation: 
      x: -0.014566270477268252
      y: 0.015888378768951276
      z: -0.02905508963263391
      w: 0.999345389513222
  covariance: [0.0, 0.0, 0.0, 0.0, 0.0, 0.0, 0.0, 0.0, 0.0, 0.0, 0.0, 0.0, 0.0, 0.0, 0.0, 0.0, 0.0, 0.0, 0.0, 0.0, 0.0, 0.0, 0.0, 0.0, 0.0, 0.0, 0.0, 0.0, 0.0, 0.0, 0.0, 0.0, 0.0, 0.0, 0.0, 0.0]
twist: 
  twist: 
    linear: 
      x: -0.005605578983873092
      y: 0.015642435858254134
      z: -0.005507173101952548
    angular: 
      x: -0.0022879629395902157
      y: 0.001983343157917261
      z: 0.0008760764030739663
  covariance: [0.0, 0.0, 0.0, 0.0, 0.0, 0.0, 0.0, 0.0, 0.0, 0.0, 0.0, 0.0, 0.0, 0.0, 0.0, 0.0, 0.0, 0.0, 0.0, 0.0, 0.0, 0.0, 0.0, 0.0, 0.0, 0.0, 0.0, 0.0, 0.0, 0.0, 0.0, 0.0, 0.0, 0.0, 0.0, 0.0]
---
header: 
  seq: 500
  stamp: 
    secs: 344
    nsecs: 592000000
  frame_id: "uav1/gps_baro_origin"
child_frame_id: "uav1/fcu"
pose: 
  pose: 
    position: 
      x: -0.27826875222298536
      y: 2.7253389049911756
      z: 0.00812307194332163
    orientation: 
      x: -0.014564377630802731
      y: 0.01587549645865053
      z: -0.0290600594950078
      w: 0.9993454755149863
  covariance: [0.0, 0.0, 0.0, 0.0, 0.0, 0.0, 0.0, 0.0, 0.0, 0.0, 0.0, 0.0, 0.0, 0.0, 0.0, 0.0, 0.0, 0.0, 0.0, 0.0, 0.0, 0.0, 0.0, 0.0, 0.0, 0.0, 0.0, 0.0, 0.0, 0.0, 0.0, 0.0, 0.0, 0.0, 0.0, 0.0]
twist: 
  twist: 
    linear: 
      x: -0.005417774034332971
      y: 0.015433121617767706
      z: -0.005505128987324572
    angular: 
      x: 0.0009148349054157734
      y: -0.002170166466385126
      z: 0.0004451839486137035
  covariance: [0.0, 0.0, 0.0, 0.0, 0.0, 0.0, 0.0, 0.0, 0.0, 0.0, 0.0, 0.0, 0.0, 0.0, 0.0, 0.0, 0.0, 0.0, 0.0, 0.0, 0.0, 0.0, 0.0, 0.0, 0.0, 0.0, 0.0, 0.0, 0.0, 0.0, 0.0, 0.0, 0.0, 0.0, 0.0, 0.0]
---
header: 
  seq: 501
  stamp: 
    secs: 344
    nsecs: 604000000
  frame_id: "uav1/gps_baro_origin"
child_frame_id: "uav1/fcu"
pose: 
  pose: 
    position: 
      x: -0.2783019912223129
      y: 2.725456443391388
      z: 0.008052320311854481
    orientation: 
      x: -0.014563974040727215
      y: 0.0158541765302382
      z: -0.029064479294205546
      w: 0.9993457103943966
  covariance: [0.0, 0.0, 0.0, 0.0, 0.0, 0.0, 0.0, 0.0, 0.0, 0.0, 0.0, 0.0, 0.0, 0.0, 0.0, 0.0, 0.0, 0.0, 0.0, 0.0, 0.0, 0.0, 0.0, 0.0, 0.0, 0.0, 0.0, 0.0, 0.0, 0.0, 0.0, 0.0, 0.0, 0.0, 0.0, 0.0]
twist: 
  twist: 
    linear: 
      x: -0.005430547378793995
      y: 0.015486807473393874
      z: -0.005701030380653556
    angular: 
      x: 0.004776155110448599
      y: 0.0004740739241242412
      z: 0.0024894033558666706
  covariance: [0.0, 0.0, 0.0, 0.0, 0.0, 0.0, 0.0, 0.0, 0.0, 0.0, 0.0, 0.0, 0.0, 0.0, 0.0, 0.0, 0.0, 0.0, 0.0, 0.0, 0.0, 0.0, 0.0, 0.0, 0.0, 0.0, 0.0, 0.0, 0.0, 0.0, 0.0, 0.0, 0.0, 0.0, 0.0, 0.0]
---
header: 
  seq: 502
  stamp: 
    secs: 344
    nsecs: 612000000
  frame_id: "uav1/gps_baro_origin"
child_frame_id: "uav1/fcu"
pose: 
  pose: 
    position: 
      x: -0.2782670030636393
      y: 2.7255414500915767
      z: 0.008004470555529903
    orientation: 
      x: -0.014557008353435865
      y: 0.01584111979867872
      z: -0.02907501393270313
      w: 0.9993457114164853
  covariance: [0.0, 0.0, 0.0, 0.0, 0.0, 0.0, 0.0, 0.0, 0.0, 0.0, 0.0, 0.0, 0.0, 0.0, 0.0, 0.0, 0.0, 0.0, 0.0, 0.0, 0.0, 0.0, 0.0, 0.0, 0.0, 0.0, 0.0, 0.0, 0.0, 0.0, 0.0, 0.0, 0.0, 0.0, 0.0, 0.0]
twist: 
  twist: 
    linear: 
      x: -0.005100525155807646
      y: 0.015215679939831086
      z: -0.005694066013338047
    angular: 
      x: 0.0007514519384130836
      y: -0.0005832980386912823
      z: 0.0002749579725787044
  covariance: [0.0, 0.0, 0.0, 0.0, 0.0, 0.0, 0.0, 0.0, 0.0, 0.0, 0.0, 0.0, 0.0, 0.0, 0.0, 0.0, 0.0, 0.0, 0.0, 0.0, 0.0, 0.0, 0.0, 0.0, 0.0, 0.0, 0.0, 0.0, 0.0, 0.0, 0.0, 0.0, 0.0, 0.0, 0.0, 0.0]
---
header: 
  seq: 503
  stamp: 
    secs: 344
    nsecs: 624000000
  frame_id: "uav1/gps_baro_origin"
child_frame_id: "uav1/fcu"
pose: 
  pose: 
    position: 
      x: -0.27830230797101047
      y: 2.725664323169161
      z: 0.007932329867505842
    orientation: 
      x: -0.014557008353435865
      y: 0.01584111979867872
      z: -0.02907501393270313
      w: 0.9993457114164853
  covariance: [0.0, 0.0, 0.0, 0.0, 0.0, 0.0, 0.0, 0.0, 0.0, 0.0, 0.0, 0.0, 0.0, 0.0, 0.0, 0.0, 0.0, 0.0, 0.0, 0.0, 0.0, 0.0, 0.0, 0.0, 0.0, 0.0, 0.0, 0.0, 0.0, 0.0, 0.0, 0.0, 0.0, 0.0, 0.0, 0.0]
twist: 
  twist: 
    linear: 
      x: -0.005135113267395044
      y: 0.015289693368666831
      z: -0.005739724363639829
    angular: 
      x: 0.0007514519384130836
      y: -0.0005832980386912823
      z: 0.0002749579725787044
  covariance: [0.0, 0.0, 0.0, 0.0, 0.0, 0.0, 0.0, 0.0, 0.0, 0.0, 0.0, 0.0, 0.0, 0.0, 0.0, 0.0, 0.0, 0.0, 0.0, 0.0, 0.0, 0.0, 0.0, 0.0, 0.0, 0.0, 0.0, 0.0, 0.0, 0.0, 0.0, 0.0, 0.0, 0.0, 0.0, 0.0]
---
header: 
  seq: 504
  stamp: 
    secs: 344
    nsecs: 632000000
  frame_id: "uav1/gps_baro_origin"
child_frame_id: "uav1/fcu"
pose: 
  pose: 
    position: 
      x: -0.2781908100070202
      y: 2.725668759719026
      z: 0.007882427374443734
    orientation: 
      x: -0.014563741323621506
      y: 0.015822250162357387
      z: -0.029114311846333805
      w: 0.999344733031342
  covariance: [0.0, 0.0, 0.0, 0.0, 0.0, 0.0, 0.0, 0.0, 0.0, 0.0, 0.0, 0.0, 0.0, 0.0, 0.0, 0.0, 0.0, 0.0, 0.0, 0.0, 0.0, 0.0, 0.0, 0.0, 0.0, 0.0, 0.0, 0.0, 0.0, 0.0, 0.0, 0.0, 0.0, 0.0, 0.0, 0.0]
twist: 
  twist: 
    linear: 
      x: -0.0044940685844148094
      y: 0.0147390887074877
      z: -0.005981687581134888
    angular: 
      x: 0.0007106278790161014
      y: -0.00042884377762675334
      z: -0.003875406924635172
  covariance: [0.0, 0.0, 0.0, 0.0, 0.0, 0.0, 0.0, 0.0, 0.0, 0.0, 0.0, 0.0, 0.0, 0.0, 0.0, 0.0, 0.0, 0.0, 0.0, 0.0, 0.0, 0.0, 0.0, 0.0, 0.0, 0.0, 0.0, 0.0, 0.0, 0.0, 0.0, 0.0, 0.0, 0.0, 0.0, 0.0]
---
header: 
  seq: 505
  stamp: 
    secs: 344
    nsecs: 644000000
  frame_id: "uav1/gps_baro_origin"
child_frame_id: "uav1/fcu"
pose: 
  pose: 
    position: 
      x: -0.2781261004246495
      y: 2.7257147376104536
      z: 0.007805352168224254
    orientation: 
      x: -0.014557499294479217
      y: 0.01582604323354459
      z: -0.02915343720963314
      w: 0.9993436521396687
  covariance: [0.0, 0.0, 0.0, 0.0, 0.0, 0.0, 0.0, 0.0, 0.0, 0.0, 0.0, 0.0, 0.0, 0.0, 0.0, 0.0, 0.0, 0.0, 0.0, 0.0, 0.0, 0.0, 0.0, 0.0, 0.0, 0.0, 0.0, 0.0, 0.0, 0.0, 0.0, 0.0, 0.0, 0.0, 0.0, 0.0]
twist: 
  twist: 
    linear: 
      x: -0.004124937582931882
      y: 0.014542043569423737
      z: -0.006257958345960406
    angular: 
      x: 0.0009007228654809296
      y: -0.0007083271630108358
      z: -0.001155938720330596
  covariance: [0.0, 0.0, 0.0, 0.0, 0.0, 0.0, 0.0, 0.0, 0.0, 0.0, 0.0, 0.0, 0.0, 0.0, 0.0, 0.0, 0.0, 0.0, 0.0, 0.0, 0.0, 0.0, 0.0, 0.0, 0.0, 0.0, 0.0, 0.0, 0.0, 0.0, 0.0, 0.0, 0.0, 0.0, 0.0, 0.0]
---
header: 
  seq: 506
  stamp: 
    secs: 344
    nsecs: 652000000
  frame_id: "uav1/gps_baro_origin"
child_frame_id: "uav1/fcu"
pose: 
  pose: 
    position: 
      x: -0.2780343451910219
      y: 2.7257708073569895
      z: 0.007752350911512345
    orientation: 
      x: -0.014552365208214603
      y: 0.015822961165618685
      z: -0.029177535010194978
      w: 0.9993430671090636
  covariance: [0.0, 0.0, 0.0, 0.0, 0.0, 0.0, 0.0, 0.0, 0.0, 0.0, 0.0, 0.0, 0.0, 0.0, 0.0, 0.0, 0.0, 0.0, 0.0, 0.0, 0.0, 0.0, 0.0, 0.0, 0.0, 0.0, 0.0, 0.0, 0.0, 0.0, 0.0, 0.0, 0.0, 0.0, 0.0, 0.0]
twist: 
  twist: 
    linear: 
      x: -0.003613937645972647
      y: 0.014200894922906581
      z: -0.006347707088443963
    angular: 
      x: 0.0023462099488824606
      y: 0.0010211602784693235
      z: -0.005458369851112366
  covariance: [0.0, 0.0, 0.0, 0.0, 0.0, 0.0, 0.0, 0.0, 0.0, 0.0, 0.0, 0.0, 0.0, 0.0, 0.0, 0.0, 0.0, 0.0, 0.0, 0.0, 0.0, 0.0, 0.0, 0.0, 0.0, 0.0, 0.0, 0.0, 0.0, 0.0, 0.0, 0.0, 0.0, 0.0, 0.0, 0.0]
---
header: 
  seq: 507
  stamp: 
    secs: 344
    nsecs: 664000000
  frame_id: "uav1/gps_baro_origin"
child_frame_id: "uav1/fcu"
pose: 
  pose: 
    position: 
      x: -0.27795463073928955
      y: 2.7257976385189675
      z: 0.007672152778497866
    orientation: 
      x: -0.014553214066141268
      y: 0.01581569807165754
      z: -0.02920122070934978
      w: 0.9993424774622401
  covariance: [0.0, 0.0, 0.0, 0.0, 0.0, 0.0, 0.0, 0.0, 0.0, 0.0, 0.0, 0.0, 0.0, 0.0, 0.0, 0.0, 0.0, 0.0, 0.0, 0.0, 0.0, 0.0, 0.0, 0.0, 0.0, 0.0, 0.0, 0.0, 0.0, 0.0, 0.0, 0.0, 0.0, 0.0, 0.0, 0.0]
twist: 
  twist: 
    linear: 
      x: -0.0032078994994209323
      y: 0.013938893532073983
      z: -0.006395849967890665
    angular: 
      x: -0.0007761118467897177
      y: -0.0031539748888462786
      z: -0.0020963149145245548
  covariance: [0.0, 0.0, 0.0, 0.0, 0.0, 0.0, 0.0, 0.0, 0.0, 0.0, 0.0, 0.0, 0.0, 0.0, 0.0, 0.0, 0.0, 0.0, 0.0, 0.0, 0.0, 0.0, 0.0, 0.0, 0.0, 0.0, 0.0, 0.0, 0.0, 0.0, 0.0, 0.0, 0.0, 0.0, 0.0, 0.0]
---
header: 
  seq: 508
  stamp: 
    secs: 344
    nsecs: 672000000
  frame_id: "uav1/gps_baro_origin"
child_frame_id: "uav1/fcu"
pose: 
  pose: 
    position: 
      x: -0.2778470491656632
      y: 2.725836066597461
      z: 0.007614630039869407
    orientation: 
      x: -0.014558009595916611
      y: 0.015799158879011347
      z: -0.02921960567985999
      w: 0.9993421145026784
  covariance: [0.0, 0.0, 0.0, 0.0, 0.0, 0.0, 0.0, 0.0, 0.0, 0.0, 0.0, 0.0, 0.0, 0.0, 0.0, 0.0, 0.0, 0.0, 0.0, 0.0, 0.0, 0.0, 0.0, 0.0, 0.0, 0.0, 0.0, 0.0, 0.0, 0.0, 0.0, 0.0, 0.0, 0.0, 0.0, 0.0]
twist: 
  twist: 
    linear: 
      x: -0.0026552037555377015
      y: 0.013563173457944168
      z: -0.006768093348275802
    angular: 
      x: 0.00018404610455036163
      y: -0.0007680109702050688
      z: -0.002194654429331422
  covariance: [0.0, 0.0, 0.0, 0.0, 0.0, 0.0, 0.0, 0.0, 0.0, 0.0, 0.0, 0.0, 0.0, 0.0, 0.0, 0.0, 0.0, 0.0, 0.0, 0.0, 0.0, 0.0, 0.0, 0.0, 0.0, 0.0, 0.0, 0.0, 0.0, 0.0, 0.0, 0.0, 0.0, 0.0, 0.0, 0.0]
---
header: 
  seq: 509
  stamp: 
    secs: 344
    nsecs: 684000000
  frame_id: "uav1/gps_baro_origin"
child_frame_id: "uav1/fcu"
pose: 
  pose: 
    position: 
      x: -0.2776854813391295
      y: 2.725808529375219
      z: 0.007529383626351119
    orientation: 
      x: -0.014578330547710423
      y: 0.015809911628705823
      z: -0.029254818713394762
      w: 0.9993406506801152
  covariance: [0.0, 0.0, 0.0, 0.0, 0.0, 0.0, 0.0, 0.0, 0.0, 0.0, 0.0, 0.0, 0.0, 0.0, 0.0, 0.0, 0.0, 0.0, 0.0, 0.0, 0.0, 0.0, 0.0, 0.0, 0.0, 0.0, 0.0, 0.0, 0.0, 0.0, 0.0, 0.0, 0.0, 0.0, 0.0, 0.0]
twist: 
  twist: 
    linear: 
      x: -0.0019397585652019419
      y: 0.013112680778953605
      z: -0.006792405204802859
    angular: 
      x: -0.0007466551614925265
      y: 0.002600394189357757
      z: -0.004098259378224611
  covariance: [0.0, 0.0, 0.0, 0.0, 0.0, 0.0, 0.0, 0.0, 0.0, 0.0, 0.0, 0.0, 0.0, 0.0, 0.0, 0.0, 0.0, 0.0, 0.0, 0.0, 0.0, 0.0, 0.0, 0.0, 0.0, 0.0, 0.0, 0.0, 0.0, 0.0, 0.0, 0.0, 0.0, 0.0, 0.0, 0.0]
---
header: 
  seq: 510
  stamp: 
    secs: 344
    nsecs: 692000000
  frame_id: "uav1/gps_baro_origin"
child_frame_id: "uav1/fcu"
pose: 
  pose: 
    position: 
      x: -0.27779805479701175
      y: 2.72607328405241
      z: 0.007472225299771121
    orientation: 
      x: -0.014577956515241242
      y: 0.015808658039884647
      z: -0.029260697199002383
      w: 0.9993405143476405
  covariance: [0.0, 0.0, 0.0, 0.0, 0.0, 0.0, 0.0, 0.0, 0.0, 0.0, 0.0, 0.0, 0.0, 0.0, 0.0, 0.0, 0.0, 0.0, 0.0, 0.0, 0.0, 0.0, 0.0, 0.0, 0.0, 0.0, 0.0, 0.0, 0.0, 0.0, 0.0, 0.0, 0.0, 0.0, 0.0, 0.0]
twist: 
  twist: 
    linear: 
      x: -0.002366375867474082
      y: 0.013599836766709705
      z: -0.00683551492586461
    angular: 
      x: 0.00016636512009426951
      y: -0.00021311221644282327
      z: 0.001091178273782134
  covariance: [0.0, 0.0, 0.0, 0.0, 0.0, 0.0, 0.0, 0.0, 0.0, 0.0, 0.0, 0.0, 0.0, 0.0, 0.0, 0.0, 0.0, 0.0, 0.0, 0.0, 0.0, 0.0, 0.0, 0.0, 0.0, 0.0, 0.0, 0.0, 0.0, 0.0, 0.0, 0.0, 0.0, 0.0, 0.0, 0.0]
---
header: 
  seq: 511
  stamp: 
    secs: 344
    nsecs: 704000000
  frame_id: "uav1/gps_baro_origin"
child_frame_id: "uav1/fcu"
pose: 
  pose: 
    position: 
      x: -0.277812462158134
      y: 2.7261816601174655
      z: 0.007385901875247159
    orientation: 
      x: -0.014577956515241242
      y: 0.015808658039884647
      z: -0.029260697199002383
      w: 0.9993405143476405
  covariance: [0.0, 0.0, 0.0, 0.0, 0.0, 0.0, 0.0, 0.0, 0.0, 0.0, 0.0, 0.0, 0.0, 0.0, 0.0, 0.0, 0.0, 0.0, 0.0, 0.0, 0.0, 0.0, 0.0, 0.0, 0.0, 0.0, 0.0, 0.0, 0.0, 0.0, 0.0, 0.0, 0.0, 0.0, 0.0, 0.0]
twist: 
  twist: 
    linear: 
      x: -0.002382206644805803
      y: 0.013659789586473634
      z: -0.006890930596145568
    angular: 
      x: 0.00016636512009426951
      y: -0.00021311221644282327
      z: 0.001091178273782134
  covariance: [0.0, 0.0, 0.0, 0.0, 0.0, 0.0, 0.0, 0.0, 0.0, 0.0, 0.0, 0.0, 0.0, 0.0, 0.0, 0.0, 0.0, 0.0, 0.0, 0.0, 0.0, 0.0, 0.0, 0.0, 0.0, 0.0, 0.0, 0.0, 0.0, 0.0, 0.0, 0.0, 0.0, 0.0, 0.0, 0.0]
---
header: 
  seq: 512
  stamp: 
    secs: 344
    nsecs: 712000000
  frame_id: "uav1/gps_baro_origin"
child_frame_id: "uav1/fcu"
pose: 
  pose: 
    position: 
      x: -0.2780335293756126
      y: 2.7265245183115567
      z: 0.007329428924083134
    orientation: 
      x: -0.014590233705709568
      y: 0.01579789165961109
      z: -0.02928140508470009
      w: 0.9993398751963735
  covariance: [0.0, 0.0, 0.0, 0.0, 0.0, 0.0, 0.0, 0.0, 0.0, 0.0, 0.0, 0.0, 0.0, 0.0, 0.0, 0.0, 0.0, 0.0, 0.0, 0.0, 0.0, 0.0, 0.0, 0.0, 0.0, 0.0, 0.0, 0.0, 0.0, 0.0, 0.0, 0.0, 0.0, 0.0, 0.0, 0.0]
twist: 
  twist: 
    linear: 
      x: -0.0032224000223203195
      y: 0.014399853703573882
      z: -0.006828083980450702
    angular: 
      x: -0.0008191707311198115
      y: -0.00016303500160574967
      z: -0.004395947325974703
  covariance: [0.0, 0.0, 0.0, 0.0, 0.0, 0.0, 0.0, 0.0, 0.0, 0.0, 0.0, 0.0, 0.0, 0.0, 0.0, 0.0, 0.0, 0.0, 0.0, 0.0, 0.0, 0.0, 0.0, 0.0, 0.0, 0.0, 0.0, 0.0, 0.0, 0.0, 0.0, 0.0, 0.0, 0.0, 0.0, 0.0]
---
header: 
  seq: 513
  stamp: 
    secs: 344
    nsecs: 724000000
  frame_id: "uav1/gps_baro_origin"
child_frame_id: "uav1/fcu"
pose: 
  pose: 
    position: 
      x: -0.2782886629312775
      y: 2.726866073816222
      z: 0.007239847360323001
    orientation: 
      x: -0.014606126324665302
      y: 0.015789367940093918
      z: -0.029328715218772464
      w: 0.9993384104528147
  covariance: [0.0, 0.0, 0.0, 0.0, 0.0, 0.0, 0.0, 0.0, 0.0, 0.0, 0.0, 0.0, 0.0, 0.0, 0.0, 0.0, 0.0, 0.0, 0.0, 0.0, 0.0, 0.0, 0.0, 0.0, 0.0, 0.0, 0.0, 0.0, 0.0, 0.0, 0.0, 0.0, 0.0, 0.0, 0.0, 0.0]
twist: 
  twist: 
    linear: 
      x: -0.004223127836479197
      y: 0.015322988647081552
      z: -0.007163131584639923
    angular: 
      x: 0.0007508721901103854
      y: 0.0008123805746436118
      z: -0.0010477410396561027
  covariance: [0.0, 0.0, 0.0, 0.0, 0.0, 0.0, 0.0, 0.0, 0.0, 0.0, 0.0, 0.0, 0.0, 0.0, 0.0, 0.0, 0.0, 0.0, 0.0, 0.0, 0.0, 0.0, 0.0, 0.0, 0.0, 0.0, 0.0, 0.0, 0.0, 0.0, 0.0, 0.0, 0.0, 0.0, 0.0, 0.0]
---
header: 
  seq: 514
  stamp: 
    secs: 344
    nsecs: 732000000
  frame_id: "uav1/gps_baro_origin"
child_frame_id: "uav1/fcu"
pose: 
  pose: 
    position: 
      x: -0.27836257503939127
      y: 2.7270570894529738
      z: 0.007179724267372571
    orientation: 
      x: -0.014606081269321523
      y: 0.015793729242795488
      z: -0.029358139921281192
      w: 0.9993374374094587
  covariance: [0.0, 0.0, 0.0, 0.0, 0.0, 0.0, 0.0, 0.0, 0.0, 0.0, 0.0, 0.0, 0.0, 0.0, 0.0, 0.0, 0.0, 0.0, 0.0, 0.0, 0.0, 0.0, 0.0, 0.0, 0.0, 0.0, 0.0, 0.0, 0.0, 0.0, 0.0, 0.0, 0.0, 0.0, 0.0, 0.0]
twist: 
  twist: 
    linear: 
      x: -0.004384893342155516
      y: 0.015448709541093127
      z: -0.007213282876490674
    angular: 
      x: 0.0018383520655333996
      y: 0.0030457642860710617
      z: -0.004865681752562523
  covariance: [0.0, 0.0, 0.0, 0.0, 0.0, 0.0, 0.0, 0.0, 0.0, 0.0, 0.0, 0.0, 0.0, 0.0, 0.0, 0.0, 0.0, 0.0, 0.0, 0.0, 0.0, 0.0, 0.0, 0.0, 0.0, 0.0, 0.0, 0.0, 0.0, 0.0, 0.0, 0.0, 0.0, 0.0, 0.0, 0.0]
---
header: 
  seq: 515
  stamp: 
    secs: 344
    nsecs: 744000000
  frame_id: "uav1/gps_baro_origin"
child_frame_id: "uav1/fcu"
pose: 
  pose: 
    position: 
      x: -0.2784509285333372
      y: 2.7272157217744932
      z: 0.007087650303114001
    orientation: 
      x: -0.014608383048238383
      y: 0.015798779799996616
      z: -0.029367983164005688
      w: 0.9993370467410234
  covariance: [0.0, 0.0, 0.0, 0.0, 0.0, 0.0, 0.0, 0.0, 0.0, 0.0, 0.0, 0.0, 0.0, 0.0, 0.0, 0.0, 0.0, 0.0, 0.0, 0.0, 0.0, 0.0, 0.0, 0.0, 0.0, 0.0, 0.0, 0.0, 0.0, 0.0, 0.0, 0.0, 0.0, 0.0, 0.0, 0.0]
twist: 
  twist: 
    linear: 
      x: -0.004643382683940374
      y: 0.015654484607067694
      z: -0.00748304503908405
    angular: 
      x: 0.0013239469844847918
      y: 0.005203173030167818
      z: 0.002291090320795774
  covariance: [0.0, 0.0, 0.0, 0.0, 0.0, 0.0, 0.0, 0.0, 0.0, 0.0, 0.0, 0.0, 0.0, 0.0, 0.0, 0.0, 0.0, 0.0, 0.0, 0.0, 0.0, 0.0, 0.0, 0.0, 0.0, 0.0, 0.0, 0.0, 0.0, 0.0, 0.0, 0.0, 0.0, 0.0, 0.0, 0.0]
---
header: 
  seq: 516
  stamp: 
    secs: 344
    nsecs: 752000000
  frame_id: "uav1/gps_baro_origin"
child_frame_id: "uav1/fcu"
pose: 
  pose: 
    position: 
      x: -0.2785123242859214
      y: 2.7273827375399464
      z: 0.007025304648488962
    orientation: 
      x: -0.014613355329992217
      y: 0.01580418571512164
      z: -0.02939020571980962
      w: 0.999336219069771
  covariance: [0.0, 0.0, 0.0, 0.0, 0.0, 0.0, 0.0, 0.0, 0.0, 0.0, 0.0, 0.0, 0.0, 0.0, 0.0, 0.0, 0.0, 0.0, 0.0, 0.0, 0.0, 0.0, 0.0, 0.0, 0.0, 0.0, 0.0, 0.0, 0.0, 0.0, 0.0, 0.0, 0.0, 0.0, 0.0, 0.0]
twist: 
  twist: 
    linear: 
      x: -0.0047323461521482126
      y: 0.01567535928785328
      z: -0.007483612311752762
    angular: 
      x: -0.0009041245793923736
      y: 0.002078600693494081
      z: -0.0026222146116197114
  covariance: [0.0, 0.0, 0.0, 0.0, 0.0, 0.0, 0.0, 0.0, 0.0, 0.0, 0.0, 0.0, 0.0, 0.0, 0.0, 0.0, 0.0, 0.0, 0.0, 0.0, 0.0, 0.0, 0.0, 0.0, 0.0, 0.0, 0.0, 0.0, 0.0, 0.0, 0.0, 0.0, 0.0, 0.0, 0.0, 0.0]
---
header: 
  seq: 517
  stamp: 
    secs: 344
    nsecs: 764000000
  frame_id: "uav1/gps_baro_origin"
child_frame_id: "uav1/fcu"
pose: 
  pose: 
    position: 
      x: -0.27866787350331323
      y: 2.727619105625759
      z: 0.0069322903239685445
    orientation: 
      x: -0.014627950969586835
      y: 0.01580053557494152
      z: -0.029417549520941215
      w: 0.9993352757541089
  covariance: [0.0, 0.0, 0.0, 0.0, 0.0, 0.0, 0.0, 0.0, 0.0, 0.0, 0.0, 0.0, 0.0, 0.0, 0.0, 0.0, 0.0, 0.0, 0.0, 0.0, 0.0, 0.0, 0.0, 0.0, 0.0, 0.0, 0.0, 0.0, 0.0, 0.0, 0.0, 0.0, 0.0, 0.0, 0.0, 0.0]
twist: 
  twist: 
    linear: 
      x: -0.005282230435678144
      y: 0.01615522214141627
      z: -0.0073830942722181315
    angular: 
      x: -0.0020006606355309486
      y: 0.004263826180249453
      z: 0.001578152878209948
  covariance: [0.0, 0.0, 0.0, 0.0, 0.0, 0.0, 0.0, 0.0, 0.0, 0.0, 0.0, 0.0, 0.0, 0.0, 0.0, 0.0, 0.0, 0.0, 0.0, 0.0, 0.0, 0.0, 0.0, 0.0, 0.0, 0.0, 0.0, 0.0, 0.0, 0.0, 0.0, 0.0, 0.0, 0.0, 0.0, 0.0]
---
header: 
  seq: 518
  stamp: 
    secs: 344
    nsecs: 772000000
  frame_id: "uav1/gps_baro_origin"
child_frame_id: "uav1/fcu"
pose: 
  pose: 
    position: 
      x: -0.2786933623844991
      y: 2.7277609721516027
      z: 0.00687193437801608
    orientation: 
      x: -0.0146465617818234
      y: 0.015803636031702303
      z: -0.0294303870367679
      w: 0.9993345891481273
  covariance: [0.0, 0.0, 0.0, 0.0, 0.0, 0.0, 0.0, 0.0, 0.0, 0.0, 0.0, 0.0, 0.0, 0.0, 0.0, 0.0, 0.0, 0.0, 0.0, 0.0, 0.0, 0.0, 0.0, 0.0, 0.0, 0.0, 0.0, 0.0, 0.0, 0.0, 0.0, 0.0, 0.0, 0.0, 0.0, 0.0]
twist: 
  twist: 
    linear: 
      x: -0.0052063500441444305
      y: 0.016056368642160496
      z: -0.0071912080894087505
    angular: 
      x: -0.0017343751387670636
      y: 0.002599056344479322
      z: -0.0018453630618751051
  covariance: [0.0, 0.0, 0.0, 0.0, 0.0, 0.0, 0.0, 0.0, 0.0, 0.0, 0.0, 0.0, 0.0, 0.0, 0.0, 0.0, 0.0, 0.0, 0.0, 0.0, 0.0, 0.0, 0.0, 0.0, 0.0, 0.0, 0.0, 0.0, 0.0, 0.0, 0.0, 0.0, 0.0, 0.0, 0.0, 0.0]
---
header: 
  seq: 519
  stamp: 
    secs: 344
    nsecs: 784000000
  frame_id: "uav1/gps_baro_origin"
child_frame_id: "uav1/fcu"
pose: 
  pose: 
    position: 
      x: -0.27873120456725864
      y: 2.7278733234291286
      z: 0.006781202894893212
    orientation: 
      x: -0.01465086866836672
      y: 0.015796855663091296
      z: -0.029434771052288693
      w: 0.9993345044882326
  covariance: [0.0, 0.0, 0.0, 0.0, 0.0, 0.0, 0.0, 0.0, 0.0, 0.0, 0.0, 0.0, 0.0, 0.0, 0.0, 0.0, 0.0, 0.0, 0.0, 0.0, 0.0, 0.0, 0.0, 0.0, 0.0, 0.0, 0.0, 0.0, 0.0, 0.0, 0.0, 0.0, 0.0, 0.0, 0.0, 0.0]
twist: 
  twist: 
    linear: 
      x: -0.005236295778879464
      y: 0.016065194071217204
      z: -0.007293864040863342
    angular: 
      x: 0.0008017132058739662
      y: -0.000989774707704782
      z: 0.003308879444375634
  covariance: [0.0, 0.0, 0.0, 0.0, 0.0, 0.0, 0.0, 0.0, 0.0, 0.0, 0.0, 0.0, 0.0, 0.0, 0.0, 0.0, 0.0, 0.0, 0.0, 0.0, 0.0, 0.0, 0.0, 0.0, 0.0, 0.0, 0.0, 0.0, 0.0, 0.0, 0.0, 0.0, 0.0, 0.0, 0.0, 0.0]
---
header: 
  seq: 520
  stamp: 
    secs: 344
    nsecs: 792000000
  frame_id: "uav1/gps_baro_origin"
child_frame_id: "uav1/fcu"
pose: 
  pose: 
    position: 
      x: -0.2787857513875207
      y: 2.728067571184036
      z: 0.006720158550080477
    orientation: 
      x: -0.014655366661447735
      y: 0.015798698329582545
      z: -0.029447722982128097
      w: 0.999334034542635
  covariance: [0.0, 0.0, 0.0, 0.0, 0.0, 0.0, 0.0, 0.0, 0.0, 0.0, 0.0, 0.0, 0.0, 0.0, 0.0, 0.0, 0.0, 0.0, 0.0, 0.0, 0.0, 0.0, 0.0, 0.0, 0.0, 0.0, 0.0, 0.0, 0.0, 0.0, 0.0, 0.0, 0.0, 0.0, 0.0, 0.0]
twist: 
  twist: 
    linear: 
      x: -0.00528586851954377
      y: 0.016169804703753097
      z: -0.007329911585756175
    angular: 
      x: 0.0008017132058739662
      y: -0.000989774707704782
      z: 0.003308879444375634
  covariance: [0.0, 0.0, 0.0, 0.0, 0.0, 0.0, 0.0, 0.0, 0.0, 0.0, 0.0, 0.0, 0.0, 0.0, 0.0, 0.0, 0.0, 0.0, 0.0, 0.0, 0.0, 0.0, 0.0, 0.0, 0.0, 0.0, 0.0, 0.0, 0.0, 0.0, 0.0, 0.0, 0.0, 0.0, 0.0, 0.0]
---
header: 
  seq: 521
  stamp: 
    secs: 344
    nsecs: 804000000
  frame_id: "uav1/gps_baro_origin"
child_frame_id: "uav1/fcu"
pose: 
  pose: 
    position: 
      x: -0.27880133800435924
      y: 2.7281523544667836
      z: 0.006627748457885838
    orientation: 
      x: -0.014677078667378881
      y: 0.015797258442872945
      z: -0.02948224909205062
      w: 0.9993327027475466
  covariance: [0.0, 0.0, 0.0, 0.0, 0.0, 0.0, 0.0, 0.0, 0.0, 0.0, 0.0, 0.0, 0.0, 0.0, 0.0, 0.0, 0.0, 0.0, 0.0, 0.0, 0.0, 0.0, 0.0, 0.0, 0.0, 0.0, 0.0, 0.0, 0.0, 0.0, 0.0, 0.0, 0.0, 0.0, 0.0, 0.0]
twist: 
  twist: 
    linear: 
      x: -0.005224283703667853
      y: 0.016081582193942182
      z: -0.007472772505502089
    angular: 
      x: -0.00050784379709512
      y: -0.0006158943288028241
      z: -0.000896070385351777
  covariance: [0.0, 0.0, 0.0, 0.0, 0.0, 0.0, 0.0, 0.0, 0.0, 0.0, 0.0, 0.0, 0.0, 0.0, 0.0, 0.0, 0.0, 0.0, 0.0, 0.0, 0.0, 0.0, 0.0, 0.0, 0.0, 0.0, 0.0, 0.0, 0.0, 0.0, 0.0, 0.0, 0.0, 0.0, 0.0, 0.0]
---
header: 
  seq: 522
  stamp: 
    secs: 344
    nsecs: 812000000
  frame_id: "uav1/gps_baro_origin"
child_frame_id: "uav1/fcu"
pose: 
  pose: 
    position: 
      x: -0.2787752528160263
      y: 2.7282596146620426
      z: 0.006565639822211444
    orientation: 
      x: -0.014690988286181204
      y: 0.015793787828338565
      z: -0.02950090395329994
      w: 0.9993319942297798
  covariance: [0.0, 0.0, 0.0, 0.0, 0.0, 0.0, 0.0, 0.0, 0.0, 0.0, 0.0, 0.0, 0.0, 0.0, 0.0, 0.0, 0.0, 0.0, 0.0, 0.0, 0.0, 0.0, 0.0, 0.0, 0.0, 0.0, 0.0, 0.0, 0.0, 0.0, 0.0, 0.0, 0.0, 0.0, 0.0, 0.0]
twist: 
  twist: 
    linear: 
      x: -0.004935748843477522
      y: 0.015859196971823267
      z: -0.007446047080239081
    angular: 
      x: -0.002362087368965149
      y: 0.0010284441523253911
      z: -0.004643316846340895
  covariance: [0.0, 0.0, 0.0, 0.0, 0.0, 0.0, 0.0, 0.0, 0.0, 0.0, 0.0, 0.0, 0.0, 0.0, 0.0, 0.0, 0.0, 0.0, 0.0, 0.0, 0.0, 0.0, 0.0, 0.0, 0.0, 0.0, 0.0, 0.0, 0.0, 0.0, 0.0, 0.0, 0.0, 0.0, 0.0, 0.0]
---
header: 
  seq: 523
  stamp: 
    secs: 344
    nsecs: 824000000
  frame_id: "uav1/gps_baro_origin"
child_frame_id: "uav1/fcu"
pose: 
  pose: 
    position: 
      x: -0.27876168863453255
      y: 2.7283371560478
      z: 0.0064720816558140335
    orientation: 
      x: -0.014690988286181204
      y: 0.015793787828338565
      z: -0.02950090395329994
      w: 0.9993319942297798
  covariance: [0.0, 0.0, 0.0, 0.0, 0.0, 0.0, 0.0, 0.0, 0.0, 0.0, 0.0, 0.0, 0.0, 0.0, 0.0, 0.0, 0.0, 0.0, 0.0, 0.0, 0.0, 0.0, 0.0, 0.0, 0.0, 0.0, 0.0, 0.0, 0.0, 0.0, 0.0, 0.0, 0.0, 0.0, 0.0, 0.0]
twist: 
  twist: 
    linear: 
      x: -0.004762594914002144
      y: 0.015739132979270976
      z: -0.0075013793641340015
    angular: 
      x: -0.002362087368965149
      y: 0.0010284441523253911
      z: -0.004643316846340895
  covariance: [0.0, 0.0, 0.0, 0.0, 0.0, 0.0, 0.0, 0.0, 0.0, 0.0, 0.0, 0.0, 0.0, 0.0, 0.0, 0.0, 0.0, 0.0, 0.0, 0.0, 0.0, 0.0, 0.0, 0.0, 0.0, 0.0, 0.0, 0.0, 0.0, 0.0, 0.0, 0.0, 0.0, 0.0, 0.0, 0.0]
---
header: 
  seq: 524
  stamp: 
    secs: 344
    nsecs: 832000000
  frame_id: "uav1/gps_baro_origin"
child_frame_id: "uav1/fcu"
pose: 
  pose: 
    position: 
      x: -0.27871952561346724
      y: 2.7284257166282098
      z: 0.006408251058858978
    orientation: 
      x: -0.014716629033605348
      y: 0.015805726580682626
      z: -0.02952241983355088
      w: 0.9993308037770489
  covariance: [0.0, 0.0, 0.0, 0.0, 0.0, 0.0, 0.0, 0.0, 0.0, 0.0, 0.0, 0.0, 0.0, 0.0, 0.0, 0.0, 0.0, 0.0, 0.0, 0.0, 0.0, 0.0, 0.0, 0.0, 0.0, 0.0, 0.0, 0.0, 0.0, 0.0, 0.0, 0.0, 0.0, 0.0, 0.0, 0.0]
twist: 
  twist: 
    linear: 
      x: -0.004419384965884816
      y: 0.015462163092904522
      z: -0.0075713224394252845
    angular: 
      x: -0.000773838022723794
      y: 0.0037424103356897835
      z: 0.0018444638699293132
  covariance: [0.0, 0.0, 0.0, 0.0, 0.0, 0.0, 0.0, 0.0, 0.0, 0.0, 0.0, 0.0, 0.0, 0.0, 0.0, 0.0, 0.0, 0.0, 0.0, 0.0, 0.0, 0.0, 0.0, 0.0, 0.0, 0.0, 0.0, 0.0, 0.0, 0.0, 0.0, 0.0, 0.0, 0.0, 0.0, 0.0]
---
header: 
  seq: 525
  stamp: 
    secs: 344
    nsecs: 844000000
  frame_id: "uav1/gps_baro_origin"
child_frame_id: "uav1/fcu"
pose: 
  pose: 
    position: 
      x: -0.2787496200142093
      y: 2.728549778271676
      z: 0.006313134286585516
    orientation: 
      x: -0.014716629033605348
      y: 0.015805726580682626
      z: -0.02952241983355088
      w: 0.9993308037770489
  covariance: [0.0, 0.0, 0.0, 0.0, 0.0, 0.0, 0.0, 0.0, 0.0, 0.0, 0.0, 0.0, 0.0, 0.0, 0.0, 0.0, 0.0, 0.0, 0.0, 0.0, 0.0, 0.0, 0.0, 0.0, 0.0, 0.0, 0.0, 0.0, 0.0, 0.0, 0.0, 0.0, 0.0, 0.0, 0.0, 0.0]
twist: 
  twist: 
    linear: 
      x: -0.004444825242016401
      y: 0.01552639811623114
      z: -0.0076275671234176
    angular: 
      x: -0.000773838022723794
      y: 0.0037424103356897835
      z: 0.0018444638699293132
  covariance: [0.0, 0.0, 0.0, 0.0, 0.0, 0.0, 0.0, 0.0, 0.0, 0.0, 0.0, 0.0, 0.0, 0.0, 0.0, 0.0, 0.0, 0.0, 0.0, 0.0, 0.0, 0.0, 0.0, 0.0, 0.0, 0.0, 0.0, 0.0, 0.0, 0.0, 0.0, 0.0, 0.0, 0.0, 0.0, 0.0]
---
header: 
  seq: 526
  stamp: 
    secs: 344
    nsecs: 852000000
  frame_id: "uav1/gps_baro_origin"
child_frame_id: "uav1/fcu"
pose: 
  pose: 
    position: 
      x: -0.278608827155344
      y: 2.728584591006134
      z: 0.006248435397058712
    orientation: 
      x: -0.0147464457670026
      y: 0.015808096482261835
      z: -0.029538199224078836
      w: 0.9993298470514893
  covariance: [0.0, 0.0, 0.0, 0.0, 0.0, 0.0, 0.0, 0.0, 0.0, 0.0, 0.0, 0.0, 0.0, 0.0, 0.0, 0.0, 0.0, 0.0, 0.0, 0.0, 0.0, 0.0, 0.0, 0.0, 0.0, 0.0, 0.0, 0.0, 0.0, 0.0, 0.0, 0.0, 0.0, 0.0, 0.0, 0.0]
twist: 
  twist: 
    linear: 
      x: -0.003729450717911013
      y: 0.01505915580153803
      z: -0.0075998434556476405
    angular: 
      x: 0.00023987272288650274
      y: 0.002842810470610857
      z: 0.0006207508267834779
  covariance: [0.0, 0.0, 0.0, 0.0, 0.0, 0.0, 0.0, 0.0, 0.0, 0.0, 0.0, 0.0, 0.0, 0.0, 0.0, 0.0, 0.0, 0.0, 0.0, 0.0, 0.0, 0.0, 0.0, 0.0, 0.0, 0.0, 0.0, 0.0, 0.0, 0.0, 0.0, 0.0, 0.0, 0.0, 0.0, 0.0]
---
header: 
  seq: 527
  stamp: 
    secs: 344
    nsecs: 864000000
  frame_id: "uav1/gps_baro_origin"
child_frame_id: "uav1/fcu"
pose: 
  pose: 
    position: 
      x: -0.2786335893566237
      y: 2.7287050827328194
      z: 0.006152862741472977
    orientation: 
      x: -0.0147464457670026
      y: 0.015808096482261835
      z: -0.029538199224078836
      w: 0.9993298470514893
  covariance: [0.0, 0.0, 0.0, 0.0, 0.0, 0.0, 0.0, 0.0, 0.0, 0.0, 0.0, 0.0, 0.0, 0.0, 0.0, 0.0, 0.0, 0.0, 0.0, 0.0, 0.0, 0.0, 0.0, 0.0, 0.0, 0.0, 0.0, 0.0, 0.0, 0.0, 0.0, 0.0, 0.0, 0.0, 0.0, 0.0]
twist: 
  twist: 
    linear: 
      x: -0.0037502157520142307
      y: 0.015119872465733108
      z: -0.0076553415890728655
    angular: 
      x: 0.00023987272288650274
      y: 0.002842810470610857
      z: 0.0006207508267834779
  covariance: [0.0, 0.0, 0.0, 0.0, 0.0, 0.0, 0.0, 0.0, 0.0, 0.0, 0.0, 0.0, 0.0, 0.0, 0.0, 0.0, 0.0, 0.0, 0.0, 0.0, 0.0, 0.0, 0.0, 0.0, 0.0, 0.0, 0.0, 0.0, 0.0, 0.0, 0.0, 0.0, 0.0, 0.0, 0.0, 0.0]
---
header: 
  seq: 528
  stamp: 
    secs: 344
    nsecs: 872000000
  frame_id: "uav1/gps_baro_origin"
child_frame_id: "uav1/fcu"
pose: 
  pose: 
    position: 
      x: -0.2784553611662459
      y: 2.728691116474826
      z: 0.006087547926372837
    orientation: 
      x: -0.014748971658895538
      y: 0.01582576998625604
      z: -0.029551467744344737
      w: 0.9993291557476819
  covariance: [0.0, 0.0, 0.0, 0.0, 0.0, 0.0, 0.0, 0.0, 0.0, 0.0, 0.0, 0.0, 0.0, 0.0, 0.0, 0.0, 0.0, 0.0, 0.0, 0.0, 0.0, 0.0, 0.0, 0.0, 0.0, 0.0, 0.0, 0.0, 0.0, 0.0, 0.0, 0.0, 0.0, 0.0, 0.0, 0.0]
twist: 
  twist: 
    linear: 
      x: -0.002894806989986669
      y: 0.014495473882209186
      z: -0.007844105252649041
    angular: 
      x: 0.0028316820971667767
      y: 0.00415448471903801
      z: -0.0005872523761354392
  covariance: [0.0, 0.0, 0.0, 0.0, 0.0, 0.0, 0.0, 0.0, 0.0, 0.0, 0.0, 0.0, 0.0, 0.0, 0.0, 0.0, 0.0, 0.0, 0.0, 0.0, 0.0, 0.0, 0.0, 0.0, 0.0, 0.0, 0.0, 0.0, 0.0, 0.0, 0.0, 0.0, 0.0, 0.0, 0.0, 0.0]
---
header: 
  seq: 529
  stamp: 
    secs: 344
    nsecs: 884000000
  frame_id: "uav1/gps_baro_origin"
child_frame_id: "uav1/fcu"
pose: 
  pose: 
    position: 
      x: -0.27833214971304926
      y: 2.7287054125468893
      z: 0.005988982837265066
    orientation: 
      x: -0.01475812004018975
      y: 0.015854708767850726
      z: -0.029558942192259866
      w: 0.9993283264545545
  covariance: [0.0, 0.0, 0.0, 0.0, 0.0, 0.0, 0.0, 0.0, 0.0, 0.0, 0.0, 0.0, 0.0, 0.0, 0.0, 0.0, 0.0, 0.0, 0.0, 0.0, 0.0, 0.0, 0.0, 0.0, 0.0, 0.0, 0.0, 0.0, 0.0, 0.0, 0.0, 0.0, 0.0, 0.0, 0.0, 0.0]
twist: 
  twist: 
    linear: 
      x: -0.002329075835146184
      y: 0.01417140024793216
      z: -0.007886945865671369
    angular: 
      x: -0.002425992861390114
      y: 0.003431507386267185
      z: 0.0010108101414516564
  covariance: [0.0, 0.0, 0.0, 0.0, 0.0, 0.0, 0.0, 0.0, 0.0, 0.0, 0.0, 0.0, 0.0, 0.0, 0.0, 0.0, 0.0, 0.0, 0.0, 0.0, 0.0, 0.0, 0.0, 0.0, 0.0, 0.0, 0.0, 0.0, 0.0, 0.0, 0.0, 0.0, 0.0, 0.0, 0.0, 0.0]
---
header: 
  seq: 530
  stamp: 
    secs: 344
    nsecs: 892000000
  frame_id: "uav1/gps_baro_origin"
child_frame_id: "uav1/fcu"
pose: 
  pose: 
    position: 
      x: -0.27842888345685846
      y: 2.72894351301738
      z: 0.005923287511831155
    orientation: 
      x: -0.014749701498179005
      y: 0.015862028351108087
      z: -0.029572311330565718
      w: 0.9993279215212026
  covariance: [0.0, 0.0, 0.0, 0.0, 0.0, 0.0, 0.0, 0.0, 0.0, 0.0, 0.0, 0.0, 0.0, 0.0, 0.0, 0.0, 0.0, 0.0, 0.0, 0.0, 0.0, 0.0, 0.0, 0.0, 0.0, 0.0, 0.0, 0.0, 0.0, 0.0, 0.0, 0.0, 0.0, 0.0, 0.0, 0.0]
twist: 
  twist: 
    linear: 
      x: -0.0026636006981001683
